{
"type": "FeatureCollection",
"name": "stops",
"crs": { "type": "name", "properties": { "name": "urn:ogc:def:crs:OGC:1.3:CRS84" } },
"features": [
{ "type": "Feature", "properties": { "stop_id": 1, "name": "თაღლაურა", "demand": 1, "window_label": "morning", "window_open": 28800, "window_close": 34200 }, "geometry": { "type": "Point", "coordinates": [ 44.8346187, 41.6766008 ] } },
{ "type": "Feature", "properties": { "stop_id": 2, "name": "სახაჩაფურე №1", "demand": 1, "window_label": "afternoon", "window_open": 54000, "window_close": 59400 }, "geometry": { "type": "Point", "coordinates": [ 44.8005519, 41.6942899 ] } },
{ "type": "Feature", "properties": { "stop_id": 3, "name": "Cafe Hilltop", "demand": 1, "window_label": "morning", "window_open": 28800, "window_close": 34200 }, "geometry": { "type": "Point", "coordinates": [ 44.8074072, 41.6888308 ] } },
{ "type": "Feature", "properties": { "stop_id": 4, "name": "1•2", "demand": 2, "window_label": "morning", "window_open": 28800, "window_close": 34200 }, "geometry": { "type": "Point", "coordinates": [ 44.8052496, 41.6902709 ] } },
{ "type": "Feature", "properties": { "stop_id": 5, "name": "Red White", "demand": 1, "window_label": "morning", "window_open": 28800, "window_close": 34200 }, "geometry": { "type": "Point", "coordinates": [ 44.8041906, 41.697342 ] } },
{ "type": "Feature", "properties": { "stop_id": 6, "name": "(unnamed)", "demand": 1, "window_label": "midday", "window_open": 39600, "window_close": 45000 }, "geometry": { "type": "Point", "coordinates": [ 44.8173936, 41.6929966 ] } },
{ "type": "Feature", "properties": { "stop_id": 7, "name": "კალინა", "demand": 1, "window_label": "midday", "window_open": 39600, "window_close": 45000 }, "geometry": { "type": "Point", "coordinates": [ 44.8021544, 41.6913395 ] } },
{ "type": "Feature", "properties": { "stop_id": 8, "name": "Process Craft beer Bar", "demand": 1, "window_label": "midday", "window_open": 39600, "window_close": 45000 }, "geometry": { "type": "Point", "coordinates": [ 44.7884143, 41.7054264 ] } },
{ "type": "Feature", "properties": { "stop_id": 9, "name": "(unnamed)", "demand": 4, "window_label": "morning", "window_open": 28800, "window_close": 34200 }, "geometry": { "type": "Point", "coordinates": [ 44.8078082, 41.6892922 ] } },
{ "type": "Feature", "properties": { "stop_id": 10, "name": "კატეგორიები", "demand": 2, "window_label": "afternoon", "window_open": 54000, "window_close": 59400 }, "geometry": { "type": "Point", "coordinates": [ 44.7843439, 41.7060033 ] } },
{ "type": "Feature", "properties": { "stop_id": 11, "name": "Plant Lovers", "demand": 2, "window_label": "midday", "window_open": 39600, "window_close": 45000 }, "geometry": { "type": "Point", "coordinates": [ 44.7943304, 41.695483 ] } },
{ "type": "Feature", "properties": { "stop_id": 12, "name": "რუსთაველი", "demand": 1, "window_label": "afternoon", "window_open": 54000, "window_close": 59400 }, "geometry": { "type": "Point", "coordinates": [ 44.7964521, 41.6998095 ] } },
{ "type": "Feature", "properties": { "stop_id": 13, "name": "Bliss", "demand": 2, "window_label": "morning", "window_open": 28800, "window_close": 34200 }, "geometry": { "type": "Point", "coordinates": [ 44.8042022, 41.6894425 ] } },
{ "type": "Feature", "properties": { "stop_id": 14, "name": "შარმ თაი", "demand": 2, "window_label": "afternoon", "window_open": 54000, "window_close": 59400 }, "geometry": { "type": "Point", "coordinates": [ 44.7947642, 41.6975956 ] } },
{ "type": "Feature", "properties": { "stop_id": 15, "name": "შაურმა ქლაბი", "demand": 1, "window_label": "midday", "window_open": 39600, "window_close": 45000 }, "geometry": { "type": "Point", "coordinates": [ 44.8235833, 41.6923181 ] } },
{ "type": "Feature", "properties": { "stop_id": 16, "name": "Santino", "demand": 2, "window_label": "midday", "window_open": 39600, "window_close": 45000 }, "geometry": { "type": "Point", "coordinates": [ 44.8034378, 41.6985563 ] } },
{ "type": "Feature", "properties": { "stop_id": 17, "name": "ენთუზიასტები", "demand": 1, "window_label": "afternoon", "window_open": 54000, "window_close": 59400 }, "geometry": { "type": "Point", "coordinates": [ 44.8034396, 41.7119729 ] } },
{ "type": "Feature", "properties": { "stop_id": 18, "name": "Atoneli", "demand": 1, "window_label": "morning", "window_open": 28800, "window_close": 34200 }, "geometry": { "type": "Point", "coordinates": [ 44.7997988, 41.6910156 ] } },
{ "type": "Feature", "properties": { "stop_id": 19, "name": "დანკინ დონათსი", "demand": 1, "window_label": "afternoon", "window_open": 54000, "window_close": 59400 }, "geometry": { "type": "Point", "coordinates": [ 44.8273208, 41.6878297 ] } },
{ "type": "Feature", "properties": { "stop_id": 20, "name": "აქსეს კაფე", "demand": 1, "window_label": "afternoon", "window_open": 54000, "window_close": 59400 }, "geometry": { "type": "Point", "coordinates": [ 44.7973856, 41.6905516 ] } },
{ "type": "Feature", "properties": { "stop_id": 21, "name": "Shot Bar", "demand": 2, "window_label": "midday", "window_open": 39600, "window_close": 45000 }, "geometry": { "type": "Point", "coordinates": [ 44.8032543, 41.7092811 ] } },
{ "type": "Feature", "properties": { "stop_id": 22, "name": "ფუოქო ფორნო", "demand": 2, "window_label": "midday", "window_open": 39600, "window_close": 45000 }, "geometry": { "type": "Point", "coordinates": [ 44.7771803, 41.7092657 ] } },
{ "type": "Feature", "properties": { "stop_id": 23, "name": "ზალა", "demand": 1, "window_label": "afternoon", "window_open": 54000, "window_close": 59400 }, "geometry": { "type": "Point", "coordinates": [ 44.785577, 41.7040637 ] } },
{ "type": "Feature", "properties": { "stop_id": 24, "name": "სეფია", "demand": 1, "window_label": "morning", "window_open": 28800, "window_close": 34200 }, "geometry": { "type": "Point", "coordinates": [ 44.7840021, 41.708477 ] } },
{ "type": "Feature", "properties": { "stop_id": 25, "name": "სამნვადე", "demand": 1, "window_label": "morning", "window_open": 28800, "window_close": 34200 }, "geometry": { "type": "Point", "coordinates": [ 44.7834073, 41.6946919 ] } },
{ "type": "Feature", "properties": { "stop_id": 26, "name": "ლეიოუვერი", "demand": 1, "window_label": "midday", "window_open": 39600, "window_close": 45000 }, "geometry": { "type": "Point", "coordinates": [ 44.7892116, 41.7062687 ] } },
{ "type": "Feature", "properties": { "stop_id": 27, "name": "Mildiani", "demand": 2, "window_label": "afternoon", "window_open": 54000, "window_close": 59400 }, "geometry": { "type": "Point", "coordinates": [ 44.8093022, 41.6892973 ] } },
{ "type": "Feature", "properties": { "stop_id": 28, "name": "პოლ", "demand": 1, "window_label": "midday", "window_open": 39600, "window_close": 45000 }, "geometry": { "type": "Point", "coordinates": [ 44.7675997, 41.7074481 ] } },
{ "type": "Feature", "properties": { "stop_id": 29, "name": "კლას", "demand": 1, "window_label": "morning", "window_open": 28800, "window_close": 34200 }, "geometry": { "type": "Point", "coordinates": [ 44.8021766, 41.6975216 ] } },
{ "type": "Feature", "properties": { "stop_id": 30, "name": "პიანო", "demand": 1, "window_label": "morning", "window_open": 28800, "window_close": 34200 }, "geometry": { "type": "Point", "coordinates": [ 44.8013081, 41.6915854 ] } },
{ "type": "Feature", "properties": { "stop_id": 31, "name": "Shahruza", "demand": 1, "window_label": "midday", "window_open": 39600, "window_close": 45000 }, "geometry": { "type": "Point", "coordinates": [ 44.8038054, 41.6973251 ] } },
{ "type": "Feature", "properties": { "stop_id": 32, "name": "Fish&wine", "demand": 2, "window_label": "midday", "window_open": 39600, "window_close": 45000 }, "geometry": { "type": "Point", "coordinates": [ 44.7968715, 41.6970846 ] } },
{ "type": "Feature", "properties": { "stop_id": 33, "name": "Cafe Meidan", "demand": 2, "window_label": "midday", "window_open": 39600, "window_close": 45000 }, "geometry": { "type": "Point", "coordinates": [ 44.8093592, 41.6896388 ] } },
{ "type": "Feature", "properties": { "stop_id": 34, "name": "ჯოი", "demand": 2, "window_label": "morning", "window_open": 28800, "window_close": 34200 }, "geometry": { "type": "Point", "coordinates": [ 44.7979434, 41.6911575 ] } },
{ "type": "Feature", "properties": { "stop_id": 35, "name": "Otsy", "demand": 1, "window_label": "afternoon", "window_open": 54000, "window_close": 59400 }, "geometry": { "type": "Point", "coordinates": [ 44.8064676, 41.6955425 ] } },
{ "type": "Feature", "properties": { "stop_id": 36, "name": "(unnamed)", "demand": 4, "window_label": "midday", "window_open": 39600, "window_close": 45000 }, "geometry": { "type": "Point", "coordinates": [ 44.8074083, 41.690872 ] } },
{ "type": "Feature", "properties": { "stop_id": 37, "name": "ლანჩ4იუ", "demand": 4, "window_label": "midday", "window_open": 39600, "window_close": 45000 }, "geometry": { "type": "Point", "coordinates": [ 44.8080279, 41.6901482 ] } },
{ "type": "Feature", "properties": { "stop_id": 38, "name": "მიქელ ქოფი", "demand": 1, "window_label": "afternoon", "window_open": 54000, "window_close": 59400 }, "geometry": { "type": "Point", "coordinates": [ 44.7726994, 41.7086896 ] } },
{ "type": "Feature", "properties": { "stop_id": 39, "name": "Pesvebi Lounge Bar", "demand": 1, "window_label": "morning", "window_open": 28800, "window_close": 34200 }, "geometry": { "type": "Point", "coordinates": [ 44.8036238, 41.695558 ] } },
{ "type": "Feature", "properties": { "stop_id": 40, "name": "კარი", "demand": 2, "window_label": "midday", "window_open": 39600, "window_close": 45000 }, "geometry": { "type": "Point", "coordinates": [ 44.7921787, 41.6893523 ] } },
{ "type": "Feature", "properties": { "stop_id": 41, "name": "საბატონი", "demand": 1, "window_label": "morning", "window_open": 28800, "window_close": 34200 }, "geometry": { "type": "Point", "coordinates": [ 44.826922, 41.6814788 ] } },
{ "type": "Feature", "properties": { "stop_id": 42, "name": "(unnamed)", "demand": 1, "window_label": "midday", "window_open": 39600, "window_close": 45000 }, "geometry": { "type": "Point", "coordinates": [ 44.7738315, 41.7184774 ] } },
{ "type": "Feature", "properties": { "stop_id": 43, "name": "პურის სახლი", "demand": 1, "window_label": "morning", "window_open": 28800, "window_close": 34200 }, "geometry": { "type": "Point", "coordinates": [ 44.8125145, 41.6885893 ] } },
{ "type": "Feature", "properties": { "stop_id": 44, "name": "ოკრო", "demand": 1, "window_label": "morning", "window_open": 28800, "window_close": 34200 }, "geometry": { "type": "Point", "coordinates": [ 44.7822448, 41.7094995 ] } },
{ "type": "Feature", "properties": { "stop_id": 45, "name": "Coffeein", "demand": 1, "window_label": "afternoon", "window_open": 54000, "window_close": 59400 }, "geometry": { "type": "Point", "coordinates": [ 44.8008887, 41.6895775 ] } },
{ "type": "Feature", "properties": { "stop_id": 46, "name": "სფინი ტრდელნიკი", "demand": 1, "window_label": "afternoon", "window_open": 54000, "window_close": 59400 }, "geometry": { "type": "Point", "coordinates": [ 44.7774489, 41.7092536 ] } },
{ "type": "Feature", "properties": { "stop_id": 47, "name": "გრუზბეკი", "demand": 2, "window_label": "afternoon", "window_open": 54000, "window_close": 59400 }, "geometry": { "type": "Point", "coordinates": [ 44.807249, 41.6945885 ] } },
{ "type": "Feature", "properties": { "stop_id": 48, "name": "გალერეა", "demand": 4, "window_label": "morning", "window_open": 28800, "window_close": 34200 }, "geometry": { "type": "Point", "coordinates": [ 44.7918662, 41.7025227 ] } },
{ "type": "Feature", "properties": { "stop_id": 49, "name": "ღამურა", "demand": 2, "window_label": "morning", "window_open": 28800, "window_close": 34200 }, "geometry": { "type": "Point", "coordinates": [ 44.8041516, 41.6980823 ] } },
{ "type": "Feature", "properties": { "stop_id": 50, "name": "შოთი", "demand": 1, "window_label": "afternoon", "window_open": 54000, "window_close": 59400 }, "geometry": { "type": "Point", "coordinates": [ 44.8037725, 41.6972213 ] } },
{ "type": "Feature", "properties": { "stop_id": 51, "name": "პოლიფონია", "demand": 2, "window_label": "morning", "window_open": 28800, "window_close": 34200 }, "geometry": { "type": "Point", "coordinates": [ 44.7921857, 41.6958126 ] } },
{ "type": "Feature", "properties": { "stop_id": 52, "name": "Karada Speakeasy", "demand": 1, "window_label": "midday", "window_open": 39600, "window_close": 45000 }, "geometry": { "type": "Point", "coordinates": [ 44.8033225, 41.6987837 ] } },
{ "type": "Feature", "properties": { "stop_id": 53, "name": "Selin", "demand": 1, "window_label": "midday", "window_open": 39600, "window_close": 45000 }, "geometry": { "type": "Point", "coordinates": [ 44.7984919, 41.7082254 ] } },
{ "type": "Feature", "properties": { "stop_id": 54, "name": "ბერნარდი სუში", "demand": 1, "window_label": "midday", "window_open": 39600, "window_close": 45000 }, "geometry": { "type": "Point", "coordinates": [ 44.8011108, 41.6918582 ] } },
{ "type": "Feature", "properties": { "stop_id": 55, "name": "ფუნიკულიორი", "demand": 2, "window_label": "morning", "window_open": 28800, "window_close": 34200 }, "geometry": { "type": "Point", "coordinates": [ 44.7866737, 41.6946645 ] } },
{ "type": "Feature", "properties": { "stop_id": 56, "name": "თაღლაურა", "demand": 1, "window_label": "midday", "window_open": 39600, "window_close": 45000 }, "geometry": { "type": "Point", "coordinates": [ 44.7755869, 41.683237 ] } },
{ "type": "Feature", "properties": { "stop_id": 57, "name": "สยามไมย คูชีน", "demand": 1, "window_label": "afternoon", "window_open": 54000, "window_close": 59400 }, "geometry": { "type": "Point", "coordinates": [ 44.8114658, 41.688275 ] } },
{ "type": "Feature", "properties": { "stop_id": 58, "name": "Weller", "demand": 2, "window_label": "afternoon", "window_open": 54000, "window_close": 59400 }, "geometry": { "type": "Point", "coordinates": [ 44.798347, 41.71579 ] } },
{ "type": "Feature", "properties": { "stop_id": 59, "name": "Onyx", "demand": 1, "window_label": "afternoon", "window_open": 54000, "window_close": 59400 }, "geometry": { "type": "Point", "coordinates": [ 44.8091902, 41.6902654 ] } },
{ "type": "Feature", "properties": { "stop_id": 60, "name": "ფიროსმანის დუქანი", "demand": 2, "window_label": "afternoon", "window_open": 54000, "window_close": 59400 }, "geometry": { "type": "Point", "coordinates": [ 44.8045119, 41.698069 ] } }
]
}
